{"events":[{"created":1571237950000,"duration":7200000,"id":"265713371","name":"Social Coding","date_in_series_pattern":false,"status":"past","time":1571266800000,"local_date":"2019-10-16","local_time":"19:00","updated":1571284649000,"utc_offset":-14400000,"waitlist_count":0,"yes_rsvp_count":1,"venue":{"id":26278951,"name":"Gene's Haufbrau","lat":32.781883239746094,"lon":-79.98588562011719,"repinned":false,"address_1":"817 Savannah Hwy","city":"Charleston","country":"us","localized_country_name":"USA","zip":"29407","state":"SC"},"group":{"created":1571236850000,"name":"GDG Charleston","id":32899325,"join_mode":"open","lat":32.779998779296875,"lon":-79.94000244140625,"urlname":"GDG-Charleston","who":"Members","localized_location":"Charleston, SC","state":"SC","country":"us","region":"en_US","timezone":"US/Eastern"},"link":"https://www.meetup.com/GDG-Charleston/events/265713371/","description":"<p>Come out and meet other technologists (aka nerds), write code or share a beverage and some laughs -- or the occasional debate.</p> ","visibility":"public","member_pay_fee":false},{"created":1571756465000,"duration":7200000,"id":"265872751","name":"Social Coding","date_in_series_pattern":false,"status":"past","time":1571871600000,"local_date":"2019-10-23","local_time":"19:00","updated":1571887052000,"utc_offset":-14400000,"waitlist_count":0,"yes_rsvp_count":1,"venue":{"id":26278951,"name":"Gene's Haufbrau","lat":32.781883239746094,"lon":-79.98588562011719,"repinned":false,"address_1":"817 Savannah Hwy","city":"Charleston","country":"us","localized_country_name":"USA","zip":"29407","state":"SC"},"group":{"created":1571236850000,"name":"GDG Charleston","id":32899325,"join_mode":"open","lat":32.779998779296875,"lon":-79.94000244140625,"urlname":"GDG-Charleston","who":"Members","localized_location":"Charleston, SC","state":"SC","country":"us","region":"en_US","timezone":"US/Eastern"},"link":"https://www.meetup.com/GDG-Charleston/events/265872751/","description":"<p>Come out and meet other technologists (aka nerds), write code or share a beverage and some laughs -- or the occasional debate.</p> ","visibility":"public","member_pay_fee":false},{"created":1572439570000,"duration":7200000,"id":"266074133","name":"Social Coding","date_in_series_pattern":false,"status":"past","time":1572476400000,"local_date":"2019-10-30","local_time":"19:00","updated":1572491032000,"utc_offset":-14400000,"waitlist_count":0,"yes_rsvp_count":2,"venue":{"id":26278951,"name":"Gene's Haufbrau","lat":32.781883239746094,"lon":-79.98588562011719,"repinned":false,"address_1":"817 Savannah Hwy","city":"Charleston","country":"us","localized_country_name":"USA","zip":"29407","state":"SC"},"group":{"created":1571236850000,"name":"GDG Charleston","id":32899325,"join_mode":"open","lat":32.779998779296875,"lon":-79.94000244140625,"urlname":"GDG-Charleston","who":"Members","localized_location":"Charleston, SC","state":"SC","country":"us","region":"en_US","timezone":"US/Eastern"},"link":"https://www.meetup.com/GDG-Charleston/events/266074133/","description":"<p>Come out and meet other technologists (aka nerds), write code or share a beverage and some laughs -- or the occasional debate.</p> ","visibility":"public","member_pay_fee":false},{"created":1573057356000,"duration":7200000,"id":"266260973","name":"Social Coding","date_in_series_pattern":false,"status":"past","time":1573084800000,"local_date":"2019-11-06","local_time":"19:00","updated":1573101271000,"utc_offset":-18000000,"waitlist_count":0,"yes_rsvp_count":1,"venue":{"id":26278951,"name":"Gene's Haufbrau","lat":32.781883239746094,"lon":-79.98588562011719,"repinned":false,"address_1":"817 Savannah Hwy","city":"Charleston","country":"us","localized_country_name":"USA","zip":"29407","state":"SC"},"group":{"created":1571236850000,"name":"GDG Charleston","id":32899325,"join_mode":"open","lat":32.779998779296875,"lon":-79.94000244140625,"urlname":"GDG-Charleston","who":"Members","localized_location":"Charleston, SC","state":"SC","country":"us","region":"en_US","timezone":"US/Eastern"},"link":"https://www.meetup.com/GDG-Charleston/events/266260973/","description":"<p>Come out and meet other technologists (aka nerds), write code or share a beverage and some laughs -- or the occasional debate.</p> ","visibility":"public","member_pay_fee":false},{"created":1573575868000,"duration":7200000,"id":"266410347","name":"Social Coding","date_in_series_pattern":false,"status":"past","time":1573689600000,"local_date":"2019-11-13","local_time":"19:00","updated":1573703265000,"utc_offset":-18000000,"waitlist_count":0,"yes_rsvp_count":1,"venue":{"id":26278951,"name":"Gene's Haufbrau","lat":32.781883239746094,"lon":-79.98588562011719,"repinned":true,"address_1":"817 Savannah Hwy","city":"Charleston","country":"us","localized_country_name":"USA","zip":"29407","state":"SC"},"group":{"created":1571236850000,"name":"GDG Charleston","id":32899325,"join_mode":"open","lat":32.779998779296875,"lon":-79.94000244140625,"urlname":"GDG-Charleston","who":"Members","localized_location":"Charleston, SC","state":"SC","country":"us","region":"en_US","timezone":"US/Eastern"},"link":"https://www.meetup.com/GDG-Charleston/events/266410347/","description":"<p>Come out and meet other technologists (aka nerds), write code or share a beverage and some laughs -- or the occasional debate.</p> ","visibility":"public","member_pay_fee":false},{"created":1574275115000,"duration":7200000,"id":"266613621","name":"Social Coding","date_in_series_pattern":false,"status":"past","time":1574294400000,"local_date":"2019-11-20","local_time":"19:00","updated":1574308062000,"utc_offset":-18000000,"waitlist_count":0,"yes_rsvp_count":1,"venue":{"id":26278951,"name":"Gene's Haufbrau","lat":32.781883239746094,"lon":-79.98588562011719,"repinned":false,"address_1":"817 Savannah Hwy","city":"Charleston","country":"us","localized_country_name":"USA","zip":"29407","state":"SC"},"group":{"created":1571236850000,"name":"GDG Charleston","id":32899325,"join_mode":"open","lat":32.779998779296875,"lon":-79.94000244140625,"urlname":"GDG-Charleston","who":"Members","localized_location":"Charleston, SC","state":"SC","country":"us","region":"en_US","timezone":"US/Eastern"},"link":"https://www.meetup.com/GDG-Charleston/events/266613621/","description":"<p>Come out and meet other technologists (aka nerds), write code or share a beverage and some laughs -- or the occasional debate.</p> ","visibility":"public","member_pay_fee":false},{"created":1575398089000,"duration":7200000,"id":"266922836","name":"Social Coding","date_in_series_pattern":false,"status":"past","time":1575504000000,"local_date":"2019-12-04","local_time":"19:00","updated":1575516842000,"utc_offset":-18000000,"waitlist_count":0,"yes_rsvp_count":1,"venue":{"id":26278951,"name":"Gene's Haufbrau","lat":32.781883239746094,"lon":-79.98588562011719,"repinned":false,"address_1":"817 Savannah Hwy","city":"Charleston","country":"us","localized_country_name":"USA","zip":"29407","state":"SC"},"group":{"created":1571236850000,"name":"GDG Charleston","id":32899325,"join_mode":"open","lat":32.779998779296875,"lon":-79.94000244140625,"urlname":"GDG-Charleston","who":"Members","localized_location":"Charleston, SC","state":"SC","country":"us","region":"en_US","timezone":"US/Eastern"},"link":"https://www.meetup.com/GDG-Charleston/events/266922836/","description":"<p>Come out and meet other technologists (aka nerds), write code or share a beverage and some laughs -- or the occasional debate.</p> ","visibility":"public","member_pay_fee":false},{"created":1576043194000,"duration":7200000,"id":"267104820","name":"Social Coding","date_in_series_pattern":false,"status":"past","time":1576108800000,"local_date":"2019-12-11","local_time":"19:00","updated":1576120574000,"utc_offset":-18000000,"waitlist_count":0,"yes_rsvp_count":1,"venue":{"id":26278951,"name":"Gene's Haufbrau","lat":32.781883239746094,"lon":-79.98588562011719,"repinned":true,"address_1":"817 Savannah Hwy","city":"Charleston","country":"us","localized_country_name":"USA","zip":"29407","state":"SC"},"group":{"created":1571236850000,"name":"GDG Charleston","id":32899325,"join_mode":"open","lat":32.779998779296875,"lon":-79.94000244140625,"urlname":"GDG-Charleston","who":"Members","localized_location":"Charleston, SC","state":"SC","country":"us","region":"en_US","timezone":"US/Eastern"},"link":"https://www.meetup.com/GDG-Charleston/events/267104820/","description":"<p>Come out and meet other technologists (aka nerds), write code or share a beverage and some laughs -- or the occasional debate.</p> ","visibility":"public","member_pay_fee":false},{"created":1576511094000,"duration":7200000,"id":"267225853","name":"Social Coding","date_in_series_pattern":false,"status":"past","time":1576713600000,"local_date":"2019-12-18","local_time":"19:00","updated":1576725900000,"utc_offset":-18000000,"waitlist_count":0,"yes_rsvp_count":1,"venue":{"id":26278951,"name":"Gene's Haufbrau","lat":32.781883239746094,"lon":-79.98588562011719,"repinned":true,"address_1":"817 Savannah Hwy","city":"Charleston","country":"us","localized_country_name":"USA","zip":"29407","state":"SC"},"group":{"created":1571236850000,"name":"GDG Charleston","id":32899325,"join_mode":"open","lat":32.779998779296875,"lon":-79.94000244140625,"urlname":"GDG-Charleston","who":"Members","localized_location":"Charleston, SC","state":"SC","country":"us","region":"en_US","timezone":"US/Eastern"},"link":"https://www.meetup.com/GDG-Charleston/events/267225853/","description":"<p>Come out and meet other technologists (aka nerds), write code or share a beverage and some laughs -- or the occasional debate.</p> ","visibility":"public","member_pay_fee":false},{"created":1578419851000,"duration":7200000,"id":"267723097","name":"Social Coding","date_in_series_pattern":false,"status":"past","time":1578528000000,"local_date":"2020-01-08","local_time":"19:00","updated":1578541127000,"utc_offset":-18000000,"waitlist_count":0,"yes_rsvp_count":3,"venue":{"id":26278951,"name":"Gene's Haufbrau","lat":32.781883239746094,"lon":-79.98588562011719,"repinned":false,"address_1":"817 Savannah Hwy","city":"Charleston","country":"us","localized_country_name":"USA","zip":"29407","state":"SC"},"group":{"created":1571236850000,"name":"GDG Charleston","id":32899325,"join_mode":"open","lat":32.779998779296875,"lon":-79.94000244140625,"urlname":"GDG-Charleston","who":"Members","localized_location":"Charleston, SC","state":"SC","country":"us","region":"en_US","timezone":"US/Eastern"},"link":"https://www.meetup.com/GDG-Charleston/events/267723097/","description":"<p>Come out and meet other technologists (aka nerds), write code or share a beverage and some laughs -- or the occasional debate.</p> ","visibility":"public","member_pay_fee":false},{"created":1579095046000,"duration":7200000,"id":"267932685","name":"Social Coding","date_in_series_pattern":false,"status":"past","time":1579132800000,"local_date":"2020-01-15","local_time":"19:00","updated":1579142156000,"utc_offset":-18000000,"waitlist_count":0,"yes_rsvp_count":1,"venue":{"id":26278951,"name":"Gene's Haufbrau","lat":32.781883239746094,"lon":-79.98588562011719,"repinned":false,"address_1":"817 Savannah Hwy","city":"Charleston","country":"us","localized_country_name":"USA","zip":"29407","state":"SC"},"group":{"created":1571236850000,"name":"GDG Charleston","id":32899325,"join_mode":"open","lat":32.779998779296875,"lon":-79.94000244140625,"urlname":"GDG-Charleston","who":"Members","localized_location":"Charleston, SC","state":"SC","country":"us","region":"en_US","timezone":"US/Eastern"},"link":"https://www.meetup.com/GDG-Charleston/events/267932685/","description":"<p>Come out and meet other technologists (aka nerds), write code or share a beverage and some laughs -- or the occasional debate.</p> ","visibility":"public","member_pay_fee":false},{"created":1579704165000,"duration":7200000,"id":"268112256","name":"Social Coding","date_in_series_pattern":false,"status":"past","time":1579737600000,"local_date":"2020-01-22","local_time":"19:00","updated":1579747086000,"utc_offset":-18000000,"waitlist_count":0,"yes_rsvp_count":1,"venue":{"id":26278951,"name":"Gene's Haufbrau","lat":32.781883239746094,"lon":-79.98588562011719,"repinned":false,"address_1":"817 Savannah Hwy","city":"Charleston","country":"us","localized_country_name":"USA","zip":"29407","state":"SC"},"group":{"created":1571236850000,"name":"GDG Charleston","id":32899325,"join_mode":"open","lat":32.779998779296875,"lon":-79.94000244140625,"urlname":"GDG-Charleston","who":"Members","localized_location":"Charleston, SC","state":"SC","country":"us","region":"en_US","timezone":"US/Eastern"},"link":"https://www.meetup.com/GDG-Charleston/events/268112256/","description":"<p>Come out and meet other technologists (aka nerds), write code or share a beverage and some laughs -- or the occasional debate.</p> ","visibility":"public","member_pay_fee":false},{"created":1580328029000,"duration":7200000,"id":"268302070","name":"Social Coding","date_in_series_pattern":false,"status":"past","time":1580342400000,"local_date":"2020-01-29","local_time":"19:00","updated":1580396590000,"utc_offset":-18000000,"waitlist_count":0,"yes_rsvp_count":1,"venue":{"id":26278951,"name":"Gene's Haufbrau","lat":32.781883239746094,"lon":-79.98588562011719,"repinned":true,"address_1":"817 Savannah Hwy","city":"Charleston","country":"us","localized_country_name":"USA","zip":"29407","state":"SC"},"group":{"created":1571236850000,"name":"GDG Charleston","id":32899325,"join_mode":"open","lat":32.779998779296875,"lon":-79.94000244140625,"urlname":"GDG-Charleston","who":"Members","localized_location":"Charleston, SC","state":"SC","country":"us","region":"en_US","timezone":"US/Eastern"},"link":"https://www.meetup.com/GDG-Charleston/events/268302070/","description":"<p>Come out and meet other technologists (aka nerds), write code or share a beverage and some laughs -- or the occasional debate.</p> ","visibility":"public","member_pay_fee":false},{"created":1580931367000,"duration":7200000,"id":"268485117","name":"Social Coding","date_in_series_pattern":false,"status":"past","time":1580947200000,"local_date":"2020-02-05","local_time":"19:00","updated":1580957199000,"utc_offset":-18000000,"waitlist_count":0,"yes_rsvp_count":1,"venue":{"id":26278951,"name":"Gene's Haufbrau","lat":32.781883239746094,"lon":-79.98588562011719,"repinned":false,"address_1":"817 Savannah Hwy","city":"Charleston","country":"us","localized_country_name":"USA","zip":"29407","state":"SC"},"group":{"created":1571236850000,"name":"GDG Charleston","id":32899325,"join_mode":"open","lat":32.779998779296875,"lon":-79.94000244140625,"urlname":"GDG-Charleston","who":"Members","localized_location":"Charleston, SC","state":"SC","country":"us","region":"en_US","timezone":"US/Eastern"},"link":"https://www.meetup.com/GDG-Charleston/events/268485117/","description":"<p>Come out and meet other technologists (aka nerds), write code or share a beverage and some laughs -- or the occasional debate.</p> ","visibility":"public","member_pay_fee":false}],"upcoming":[],"organizers":[{"id":21903951,"name":"Bill M.","status":"active","joined":1312486533000,"city":"Charleston","country":"us","localized_country_name":"USA","state":"SC","lat":32.8,"lon":-79.95,"photo":{"id":291919329,"highres_link":"https://secure.meetupstatic.com/photos/member/4/b/8/1/highres_291919329.jpeg","photo_link":"https://secure.meetupstatic.com/photos/member/4/b/8/1/member_291919329.jpeg","thumb_link":"https://secure.meetupstatic.com/photos/member/4/b/8/1/thumb_291919329.jpeg","type":"member","base_url":"https://secure.meetupstatic.com"},"group_profile":{"status":"active","visited":1580961458000,"created":1571236850000,"updated":1571237463000,"role":"organizer","group":{"id":32899325,"urlname":"GDG-Charleston","name":"GDG Charleston","status":"active","who":"Members","members":28,"join_mode":"open","localized_location":"Charleston, SC"},"intro":"Howdy!  I'm Bill Mote.  I helped start GDG Cincinnati back in 2011 and grew that chapter to more than 400 members in the 4 years I was involved there.  I was elected as a GDG Mentor for the Southern Region and relocated to Charleston, SC.","link":"https://www.meetup.com/GDG-Charleston/members/21903951/"},"is_pro_admin":false}]}
