{"events":[{"created":1562759680000,"duration":7200000,"id":"263027071","name":"Game Day @ Valleyworx","date_in_series_pattern":false,"status":"past","time":1564254000000,"local_date":"2019-07-27","local_time":"12:00","updated":1564265505000,"utc_offset":-25200000,"waitlist_count":0,"yes_rsvp_count":14,"venue":{"id":26464787,"name":"ValleyWorx","lat":37.70575714111328,"lon":-121.0701904296875,"repinned":true,"address_1":"4701 Stoddard Rd","city":"Modesto","country":"us","localized_country_name":"USA","zip":"95356","state":"CA"},"group":{"created":1561497333000,"name":"GDG Cloud Turlock","id":32256923,"join_mode":"open","lat":37.5,"lon":-120.86000061035156,"urlname":"GDG-Cloud-Turlock","who":"Engineers","localized_location":"Turlock, CA","state":"CA","country":"us","region":"en_US","timezone":"US/Pacific"},"link":"https://www.meetup.com/GDG-Cloud-Turlock/events/263027071/","description":"<p>Before we officially launch in the Fall, we are going to host an event at Valleyworx in Modesto!</p> <p>This is a chance to meet with the folks who will be running GDG Cloud Turlock and play some games. We'll have board games, Smash, Jackbox, and more!</p> <p>Special thanks to Bay Valley Tech for letting us use this space during the summer.</p> <p>Event subject to change.</p> ","how_to_find_us":"Second floor.","visibility":"public","member_pay_fee":false},{"created":1565120750000,"duration":7200000,"id":"263784107","name":"GDG Cloud Turlock Launch ","rsvp_limit":30,"date_in_series_pattern":false,"status":"past","time":1567814400000,"local_date":"2019-09-06","local_time":"17:00","updated":1567824403000,"utc_offset":-25200000,"waitlist_count":0,"yes_rsvp_count":8,"venue":{"id":26587404,"name":"Demergasso-Bava Hall (DBH)/Professional Schools","lat":37.526241302490234,"lon":-120.86021423339844,"repinned":false,"address_1":"1 University Cir","city":"Turlock","country":"us","localized_country_name":"USA","zip":"95382","state":"CA"},"group":{"created":1561497333000,"name":"GDG Cloud Turlock","id":32256923,"join_mode":"open","lat":37.5,"lon":-120.86000061035156,"urlname":"GDG-Cloud-Turlock","who":"Engineers","localized_location":"Turlock, CA","state":"CA","country":"us","region":"en_US","timezone":"US/Pacific"},"link":"https://www.meetup.com/GDG-Cloud-Turlock/events/263784107/","description":"<p>Official Launch of our new GDG, also first CS Club meeting of the semester!</p> ","how_to_find_us":"DBH 146","visibility":"public","member_pay_fee":false},{"created":1565065396000,"duration":7200000,"id":"263767768","name":"Machine Learning Object Detection workshop ","rsvp_limit":30,"date_in_series_pattern":false,"status":"past","time":1568250900000,"local_date":"2019-09-11","local_time":"18:15","updated":1568262324000,"utc_offset":-25200000,"waitlist_count":0,"yes_rsvp_count":2,"venue":{"id":26587402,"name":"Mary Stuart Rogers Educational Services Gateway Building","lat":37.523563385009766,"lon":-120.85706329345703,"repinned":true,"address_1":"University Cir","city":"Turlock","country":"us","localized_country_name":"USA","zip":"95382","state":"CA"},"group":{"created":1561497333000,"name":"GDG Cloud Turlock","id":32256923,"join_mode":"open","lat":37.5,"lon":-120.86000061035156,"urlname":"GDG-Cloud-Turlock","who":"Engineers","localized_location":"Turlock, CA","state":"CA","country":"us","region":"en_US","timezone":"US/Pacific"},"link":"https://www.meetup.com/GDG-Cloud-Turlock/events/263767768/","description":"<p>You will learn how to train your own AI models to detect any type of object. You will get hands on experience with Tensorflow and IBM Cloud.</p> ","how_to_find_us":"MSR 130c (Conference room)","visibility":"public","member_pay_fee":false},{"created":1565120885000,"duration":7200000,"id":"263784140","name":"Game Night #1","rsvp_limit":30,"date_in_series_pattern":false,"status":"past","time":1568419200000,"local_date":"2019-09-13","local_time":"17:00","updated":1568432959000,"utc_offset":-25200000,"waitlist_count":0,"yes_rsvp_count":3,"venue":{"id":26587404,"name":"Demergasso-Bava Hall (DBH)/Professional Schools","lat":37.526241302490234,"lon":-120.86021423339844,"repinned":false,"address_1":"1 University Cir","city":"Turlock","country":"us","localized_country_name":"USA","zip":"95382","state":"CA"},"group":{"created":1561497333000,"name":"GDG Cloud Turlock","id":32256923,"join_mode":"open","lat":37.5,"lon":-120.86000061035156,"urlname":"GDG-Cloud-Turlock","who":"Engineers","localized_location":"Turlock, CA","state":"CA","country":"us","region":"en_US","timezone":"US/Pacific"},"link":"https://www.meetup.com/GDG-Cloud-Turlock/events/263784140/","description":"<p>First gaming night of the semester</p> ","how_to_find_us":"DBH 146","visibility":"public","member_pay_fee":false},{"created":1564958240000,"duration":7200000,"id":"263732779","name":"Hacking the Technical Interview Workshop (MLH Localhost)","rsvp_limit":30,"date_in_series_pattern":false,"status":"past","time":1568855700000,"local_date":"2019-09-18","local_time":"18:15","updated":1568873039000,"utc_offset":-25200000,"waitlist_count":0,"yes_rsvp_count":7,"venue":{"id":26587402,"name":"Mary Stuart Rogers Educational Services Gateway Building","lat":37.523563385009766,"lon":-120.85706329345703,"repinned":true,"address_1":"University Cir","city":"Turlock","country":"us","localized_country_name":"USA","zip":"95382","state":"CA"},"group":{"created":1561497333000,"name":"GDG Cloud Turlock","id":32256923,"join_mode":"open","lat":37.5,"lon":-120.86000061035156,"urlname":"GDG-Cloud-Turlock","who":"Engineers","localized_location":"Turlock, CA","state":"CA","country":"us","region":"en_US","timezone":"US/Pacific"},"link":"https://www.meetup.com/GDG-Cloud-Turlock/events/263732779/","description":"<p>During this workshop, you’ll learn strategies to help you perform better in technical interviews. You’ll practice algorithms, ask and answer questions, and get more comfortable with technical interview challenges.</p> ","how_to_find_us":"MSR 130c","visibility":"public","member_pay_fee":false},{"created":1564959200000,"duration":7200000,"id":"ggjdhryzmbbc","name":"Gaming Night","rsvp_limit":30,"date_in_series_pattern":false,"status":"past","time":1569024000000,"local_date":"2019-09-20","local_time":"17:00","updated":1569034811000,"utc_offset":-25200000,"waitlist_count":0,"yes_rsvp_count":4,"venue":{"id":26587404,"name":"Demergasso-Bava Hall (DBH)/Professional Schools","lat":37.526241302490234,"lon":-120.86021423339844,"repinned":false,"address_1":"1 University Cir","city":"Turlock","country":"us","localized_country_name":"USA","zip":"95382","state":"CA"},"group":{"created":1561497333000,"name":"GDG Cloud Turlock","id":32256923,"join_mode":"open","lat":37.5,"lon":-120.86000061035156,"urlname":"GDG-Cloud-Turlock","who":"Engineers","localized_location":"Turlock, CA","state":"CA","country":"us","region":"en_US","timezone":"US/Pacific"},"link":"https://www.meetup.com/GDG-Cloud-Turlock/events/ggjdhryzmbbc/","description":"<p>Let the games begin! We'll have video games, board games, and all kinds of other cool stuff, come on out!</p> ","how_to_find_us":"DBH 146","visibility":"public","member_pay_fee":false},{"created":1564958426000,"duration":7200000,"id":"263732832","name":"Bug-Free Coding with Spark","rsvp_limit":30,"date_in_series_pattern":false,"status":"past","time":1569460500000,"local_date":"2019-09-25","local_time":"18:15","updated":1569475561000,"utc_offset":-25200000,"waitlist_count":0,"yes_rsvp_count":5,"venue":{"id":26587402,"name":"Mary Stuart Rogers Educational Services Gateway Building","lat":37.523563385009766,"lon":-120.85706329345703,"repinned":true,"address_1":"University Cir","city":"Turlock","country":"us","localized_country_name":"USA","zip":"95382","state":"CA"},"group":{"created":1561497333000,"name":"GDG Cloud Turlock","id":32256923,"join_mode":"open","lat":37.5,"lon":-120.86000061035156,"urlname":"GDG-Cloud-Turlock","who":"Engineers","localized_location":"Turlock, CA","state":"CA","country":"us","region":"en_US","timezone":"US/Pacific"},"link":"https://www.meetup.com/GDG-Cloud-Turlock/events/263732832/","description":"<p>Ada is a general purpose, modern programming language like Java, C, and C++. It was created in the 1980s for the United States’s Department of Defense. Ada is an excellent choice if you’re writing code for embedded systems, applications that will have a long life-span, or where human lives are at stake.</p> ","how_to_find_us":"MSR 130c","visibility":"public","member_pay_fee":false},{"created":1564959200000,"duration":7200000,"id":"ggjdhryzmbkc","name":"Gaming Night","rsvp_limit":30,"date_in_series_pattern":false,"status":"past","time":1569628800000,"local_date":"2019-09-27","local_time":"17:00","updated":1569641167000,"utc_offset":-25200000,"waitlist_count":0,"yes_rsvp_count":2,"venue":{"id":26587404,"name":"Demergasso-Bava Hall (DBH)/Professional Schools","lat":37.526241302490234,"lon":-120.86021423339844,"repinned":false,"address_1":"1 University Cir","city":"Turlock","country":"us","localized_country_name":"USA","zip":"95382","state":"CA"},"group":{"created":1561497333000,"name":"GDG Cloud Turlock","id":32256923,"join_mode":"open","lat":37.5,"lon":-120.86000061035156,"urlname":"GDG-Cloud-Turlock","who":"Engineers","localized_location":"Turlock, CA","state":"CA","country":"us","region":"en_US","timezone":"US/Pacific"},"link":"https://www.meetup.com/GDG-Cloud-Turlock/events/ggjdhryzmbkc/","description":"<p>Let the games begin! We'll have video games, board games, and all kinds of other cool stuff, come on out!</p> ","how_to_find_us":"DBH 146","visibility":"public","member_pay_fee":false},{"created":1564958617000,"duration":7200000,"id":"263732868","name":"Intro to Python","rsvp_limit":20,"date_in_series_pattern":false,"status":"past","time":1570060800000,"local_date":"2019-10-02","local_time":"17:00","updated":1570074302000,"utc_offset":-25200000,"waitlist_count":0,"yes_rsvp_count":6,"venue":{"id":26587402,"name":"Mary Stuart Rogers Educational Services Gateway Building","lat":37.523563385009766,"lon":-120.85706329345703,"repinned":true,"address_1":"University Cir","city":"Turlock","country":"us","localized_country_name":"USA","zip":"95382","state":"CA"},"group":{"created":1561497333000,"name":"GDG Cloud Turlock","id":32256923,"join_mode":"open","lat":37.5,"lon":-120.86000061035156,"urlname":"GDG-Cloud-Turlock","who":"Engineers","localized_location":"Turlock, CA","state":"CA","country":"us","region":"en_US","timezone":"US/Pacific"},"link":"https://www.meetup.com/GDG-Cloud-Turlock/events/263732868/","description":"<p>In this workshop, participants will learn how to scrape the web for data using Python. They will scrape Tweets from their favorite celebrity or other public figure’s Twitter. Then, they’ll edit a chat app that responds to messages with Tweets.</p> ","how_to_find_us":"MSR 130c","visibility":"public","member_pay_fee":false},{"created":1564959200000,"duration":7200000,"id":"ggjdhryznbgb","name":"Gaming Night","rsvp_limit":30,"date_in_series_pattern":false,"status":"past","time":1570233600000,"local_date":"2019-10-04","local_time":"17:00","updated":1570245827000,"utc_offset":-25200000,"waitlist_count":0,"yes_rsvp_count":3,"venue":{"id":26587404,"name":"Demergasso-Bava Hall (DBH)/Professional Schools","lat":37.526241302490234,"lon":-120.86021423339844,"repinned":false,"address_1":"1 University Cir","city":"Turlock","country":"us","localized_country_name":"USA","zip":"95382","state":"CA"},"group":{"created":1561497333000,"name":"GDG Cloud Turlock","id":32256923,"join_mode":"open","lat":37.5,"lon":-120.86000061035156,"urlname":"GDG-Cloud-Turlock","who":"Engineers","localized_location":"Turlock, CA","state":"CA","country":"us","region":"en_US","timezone":"US/Pacific"},"link":"https://www.meetup.com/GDG-Cloud-Turlock/events/ggjdhryznbgb/","description":"<p>Let the games begin! We'll have video games, board games, and all kinds of other cool stuff, come on out!</p> ","how_to_find_us":"DBH 146","visibility":"public","member_pay_fee":false},{"created":1567914106000,"duration":7200000,"id":"264657980","name":"Let's Code! with C++ Basics","rsvp_limit":20,"date_in_series_pattern":false,"status":"past","time":1570669200000,"local_date":"2019-10-09","local_time":"18:00","updated":1570686995000,"utc_offset":-25200000,"waitlist_count":0,"yes_rsvp_count":6,"venue":{"id":26587402,"name":"Mary Stuart Rogers Educational Services Gateway Building","lat":37.523563385009766,"lon":-120.85706329345703,"repinned":false,"address_1":"University Cir","city":"Turlock","country":"us","localized_country_name":"USA","zip":"95382","state":"CA"},"group":{"created":1561497333000,"name":"GDG Cloud Turlock","id":32256923,"join_mode":"open","lat":37.5,"lon":-120.86000061035156,"urlname":"GDG-Cloud-Turlock","who":"Engineers","localized_location":"Turlock, CA","state":"CA","country":"us","region":"en_US","timezone":"US/Pacific"},"link":"https://www.meetup.com/GDG-Cloud-Turlock/events/264657980/","description":"<p>Get to know the basics of C++ with this workshop!</p> ","how_to_find_us":"MSR 130c","visibility":"public","member_pay_fee":false},{"created":1564959200000,"duration":7200000,"id":"ggjdhryznbpb","name":"Gaming Night","rsvp_limit":30,"date_in_series_pattern":false,"status":"past","time":1570838400000,"local_date":"2019-10-11","local_time":"17:00","updated":1570851974000,"utc_offset":-25200000,"waitlist_count":0,"yes_rsvp_count":2,"venue":{"id":26587404,"name":"Demergasso-Bava Hall (DBH)/Professional Schools","lat":37.526241302490234,"lon":-120.86021423339844,"repinned":false,"address_1":"1 University Cir","city":"Turlock","country":"us","localized_country_name":"USA","zip":"95382","state":"CA"},"group":{"created":1561497333000,"name":"GDG Cloud Turlock","id":32256923,"join_mode":"open","lat":37.5,"lon":-120.86000061035156,"urlname":"GDG-Cloud-Turlock","who":"Engineers","localized_location":"Turlock, CA","state":"CA","country":"us","region":"en_US","timezone":"US/Pacific"},"link":"https://www.meetup.com/GDG-Cloud-Turlock/events/ggjdhryznbpb/","description":"<p>Let the games begin! We'll have video games, board games, and all kinds of other cool stuff, come on out!</p> ","how_to_find_us":"DBH 146","visibility":"public","member_pay_fee":false},{"created":1567017065000,"duration":7200000,"id":"264375656","name":"Get Good at Git (and UNIX) ","rsvp_limit":20,"date_in_series_pattern":false,"status":"past","time":1571274000000,"local_date":"2019-10-16","local_time":"18:00","updated":1571292233000,"utc_offset":-25200000,"waitlist_count":0,"yes_rsvp_count":6,"venue":{"id":26587402,"name":"Mary Stuart Rogers Educational Services Gateway Building","lat":37.523563385009766,"lon":-120.85706329345703,"repinned":true,"address_1":"University Cir","city":"Turlock","country":"us","localized_country_name":"USA","zip":"95382","state":"CA"},"group":{"created":1561497333000,"name":"GDG Cloud Turlock","id":32256923,"join_mode":"open","lat":37.5,"lon":-120.86000061035156,"urlname":"GDG-Cloud-Turlock","who":"Engineers","localized_location":"Turlock, CA","state":"CA","country":"us","region":"en_US","timezone":"US/Pacific"},"link":"https://www.meetup.com/GDG-Cloud-Turlock/events/264375656/","description":"<p>Come out and learn how to use Git and Unix! You'll learn some basic console commands to help make collaborating with Git much easier.</p> ","how_to_find_us":"MSR 130c","visibility":"public","member_pay_fee":false},{"created":1564959200000,"duration":7200000,"id":"ggjdhryznbxb","name":"Gaming Night","rsvp_limit":30,"date_in_series_pattern":false,"status":"past","time":1571443200000,"local_date":"2019-10-18","local_time":"17:00","updated":1571457351000,"utc_offset":-25200000,"waitlist_count":0,"yes_rsvp_count":3,"venue":{"id":26587404,"name":"Demergasso-Bava Hall (DBH)/Professional Schools","lat":37.526241302490234,"lon":-120.86021423339844,"repinned":false,"address_1":"1 University Cir","city":"Turlock","country":"us","localized_country_name":"USA","zip":"95382","state":"CA"},"group":{"created":1561497333000,"name":"GDG Cloud Turlock","id":32256923,"join_mode":"open","lat":37.5,"lon":-120.86000061035156,"urlname":"GDG-Cloud-Turlock","who":"Engineers","localized_location":"Turlock, CA","state":"CA","country":"us","region":"en_US","timezone":"US/Pacific"},"link":"https://www.meetup.com/GDG-Cloud-Turlock/events/ggjdhryznbxb/","description":"<p>Let the games begin! We'll have video games, board games, and all kinds of other cool stuff, come on out!</p> ","how_to_find_us":"DBH 146","visibility":"public","member_pay_fee":false},{"created":1564958783000,"duration":7200000,"id":"263732910","name":"Node.js Apps with Microsoft Azure ","rsvp_limit":30,"date_in_series_pattern":false,"status":"past","time":1571875200000,"local_date":"2019-10-23","local_time":"17:00","updated":1571888034000,"utc_offset":-25200000,"waitlist_count":0,"yes_rsvp_count":4,"venue":{"id":26587402,"name":"Mary Stuart Rogers Educational Services Gateway Building","lat":37.523563385009766,"lon":-120.85706329345703,"repinned":true,"address_1":"University Cir","city":"Turlock","country":"us","localized_country_name":"USA","zip":"95382","state":"CA"},"group":{"created":1561497333000,"name":"GDG Cloud Turlock","id":32256923,"join_mode":"open","lat":37.5,"lon":-120.86000061035156,"urlname":"GDG-Cloud-Turlock","who":"Engineers","localized_location":"Turlock, CA","state":"CA","country":"us","region":"en_US","timezone":"US/Pacific"},"link":"https://www.meetup.com/GDG-Cloud-Turlock/events/263732910/","description":"<p>In this workshop, participants will explore the basics of Node.js and Express by making a HackerLog web app. You’ll guide them through setting up their JavaScript development environments, installing Visual Studio Code, downloading and testing an app locally, and seamlessly deploying it with Microsoft Azure.</p> ","how_to_find_us":"MSR 130c","visibility":"public","member_pay_fee":false},{"created":1564959200000,"duration":7200000,"id":"ggjdhryznbhc","name":"Gaming Night","rsvp_limit":30,"date_in_series_pattern":false,"status":"past","time":1572048000000,"local_date":"2019-10-25","local_time":"17:00","updated":1572058441000,"utc_offset":-25200000,"waitlist_count":0,"yes_rsvp_count":4,"venue":{"id":26587404,"name":"Demergasso-Bava Hall (DBH)/Professional Schools","lat":37.526241302490234,"lon":-120.86021423339844,"repinned":false,"address_1":"1 University Cir","city":"Turlock","country":"us","localized_country_name":"USA","zip":"95382","state":"CA"},"group":{"created":1561497333000,"name":"GDG Cloud Turlock","id":32256923,"join_mode":"open","lat":37.5,"lon":-120.86000061035156,"urlname":"GDG-Cloud-Turlock","who":"Engineers","localized_location":"Turlock, CA","state":"CA","country":"us","region":"en_US","timezone":"US/Pacific"},"link":"https://www.meetup.com/GDG-Cloud-Turlock/events/ggjdhryznbhc/","description":"<p>Let the games begin! We'll have video games, board games, and all kinds of other cool stuff, come on out!</p> ","how_to_find_us":"DBH 146","visibility":"public","member_pay_fee":false},{"created":1564958979000,"duration":7200000,"id":"263732962","name":"C# with Unity","rsvp_limit":30,"date_in_series_pattern":false,"status":"past","time":1572484500000,"local_date":"2019-10-30","local_time":"18:15","updated":1572498430000,"utc_offset":-25200000,"waitlist_count":0,"yes_rsvp_count":3,"venue":{"id":26587402,"name":"Mary Stuart Rogers Educational Services Gateway Building","lat":37.523563385009766,"lon":-120.85706329345703,"repinned":true,"address_1":"University Cir","city":"Turlock","country":"us","localized_country_name":"USA","zip":"95382","state":"CA"},"group":{"created":1561497333000,"name":"GDG Cloud Turlock","id":32256923,"join_mode":"open","lat":37.5,"lon":-120.86000061035156,"urlname":"GDG-Cloud-Turlock","who":"Engineers","localized_location":"Turlock, CA","state":"CA","country":"us","region":"en_US","timezone":"US/Pacific"},"link":"https://www.meetup.com/GDG-Cloud-Turlock/events/263732962/","description":"<p>In this workshop, participants will interact with a 3D car racing game written in C# and developed using the Unity Game Engine. Participants will learn how to set up the Unity Engine on their computers, explore the project files, fix broken functions in the game, and publish their games for others to play!</p> ","how_to_find_us":"MSR 130c","visibility":"public","member_pay_fee":false},{"created":1564959200000,"duration":7200000,"id":"ggjdhryzpbcb","name":"Gaming Night","rsvp_limit":30,"date_in_series_pattern":false,"status":"past","time":1572652800000,"local_date":"2019-11-01","local_time":"17:00","updated":1572663410000,"utc_offset":-25200000,"waitlist_count":0,"yes_rsvp_count":2,"venue":{"id":26587404,"name":"Demergasso-Bava Hall (DBH)/Professional Schools","lat":37.526241302490234,"lon":-120.86021423339844,"repinned":false,"address_1":"1 University Cir","city":"Turlock","country":"us","localized_country_name":"USA","zip":"95382","state":"CA"},"group":{"created":1561497333000,"name":"GDG Cloud Turlock","id":32256923,"join_mode":"open","lat":37.5,"lon":-120.86000061035156,"urlname":"GDG-Cloud-Turlock","who":"Engineers","localized_location":"Turlock, CA","state":"CA","country":"us","region":"en_US","timezone":"US/Pacific"},"link":"https://www.meetup.com/GDG-Cloud-Turlock/events/ggjdhryzpbcb/","description":"<p>Let the games begin! We'll have video games, board games, and all kinds of other cool stuff, come on out!</p> ","how_to_find_us":"DBH 146","visibility":"public","member_pay_fee":false},{"created":1571715066000,"duration":7200000,"id":"265864699","name":"Machine Learning for Beginners","date_in_series_pattern":false,"status":"past","time":1573089300000,"local_date":"2019-11-06","local_time":"17:15","updated":1573102686000,"utc_offset":-28800000,"waitlist_count":0,"yes_rsvp_count":8,"venue":{"id":26587402,"name":"Mary Stuart Rogers Educational Services Gateway Building","lat":37.523563385009766,"lon":-120.85706329345703,"repinned":false,"address_1":"University Cir","city":"Turlock","country":"us","localized_country_name":"USA","zip":"95382","state":"CA"},"group":{"created":1561497333000,"name":"GDG Cloud Turlock","id":32256923,"join_mode":"open","lat":37.5,"lon":-120.86000061035156,"urlname":"GDG-Cloud-Turlock","who":"Engineers","localized_location":"Turlock, CA","state":"CA","country":"us","region":"en_US","timezone":"US/Pacific"},"link":"https://www.meetup.com/GDG-Cloud-Turlock/events/265864699/","description":"<p>Learn the concepts of machine learning from Google!</p> ","how_to_find_us":"MSR 130c","visibility":"public","member_pay_fee":false},{"created":1564959200000,"duration":7200000,"id":"ggjdhryzpblb","name":"Gaming Night","rsvp_limit":30,"date_in_series_pattern":false,"status":"past","time":1573261200000,"local_date":"2019-11-08","local_time":"17:00","updated":1573274149000,"utc_offset":-28800000,"waitlist_count":0,"yes_rsvp_count":2,"venue":{"id":26587404,"name":"Demergasso-Bava Hall (DBH)/Professional Schools","lat":37.526241302490234,"lon":-120.86021423339844,"repinned":false,"address_1":"1 University Cir","city":"Turlock","country":"us","localized_country_name":"USA","zip":"95382","state":"CA"},"group":{"created":1561497333000,"name":"GDG Cloud Turlock","id":32256923,"join_mode":"open","lat":37.5,"lon":-120.86000061035156,"urlname":"GDG-Cloud-Turlock","who":"Engineers","localized_location":"Turlock, CA","state":"CA","country":"us","region":"en_US","timezone":"US/Pacific"},"link":"https://www.meetup.com/GDG-Cloud-Turlock/events/ggjdhryzpblb/","description":"<p>Let the games begin! We'll have video games, board games, and all kinds of other cool stuff, come on out!</p> ","how_to_find_us":"DBH 146","visibility":"public","member_pay_fee":false},{"created":1564180730000,"duration":25200000,"id":"263494396","name":"DevFest / Cloud Study Jam 2019 @ Stan State","date_in_series_pattern":false,"status":"past","time":1573329600000,"local_date":"2019-11-09","local_time":"12:00","updated":1573356766000,"utc_offset":-28800000,"waitlist_count":0,"yes_rsvp_count":20,"venue":{"id":26587404,"name":"Demergasso-Bava Hall (DBH)/Professional Schools","lat":37.526241302490234,"lon":-120.86021423339844,"repinned":true,"address_1":"1 University Cir","city":"Turlock","country":"us","localized_country_name":"USA","zip":"95382","state":"CA"},"group":{"created":1561497333000,"name":"GDG Cloud Turlock","id":32256923,"join_mode":"open","lat":37.5,"lon":-120.86000061035156,"urlname":"GDG-Cloud-Turlock","who":"Engineers","localized_location":"Turlock, CA","state":"CA","country":"us","region":"en_US","timezone":"US/Pacific"},"link":"https://www.meetup.com/GDG-Cloud-Turlock/events/263494396/","description":"<p>------------------------<br/>DevFest<br/>------------------------</p> <p>DevFest 2019, a Hackathon for Beginners.</p> <p>You have 7 hours to build something, anything, that uses a Google Cloud Service in any way. Everything from VMs to APIs are fair game.</p> <p>We will provide templates and guides, it is up to you to decide what to do with your project.</p> <p>We will have free food (Thanks to Mozilla for providing us the Domino's Gift Card) as well as some free swag.</p> <p><a href=\"https://gdgcloudturlock.com/events/devfest.html\" class=\"linkified\">https://gdgcloudturlock.com/events/devfest.html</a></p> <p>------------------------<br/>Cloud Study Jam<br/>------------------------</p> <p>Join a community of like-minded developers and explore the latest Google Cloud technologies as a team.<br/>Join us for our upcoming Cloud Study Jam and get hands-on experience with Machine Learning.</p> <p>After the Study Jam, you’ll receive 30-days free access to the entire Qwiklabs catalogue, so you can keep developing your skills at home. Complete all of the labs in the session’s quest, and you’ll earn an additional free month of access to Qwiklabs as well as a badge for your online profile.</p> <p>Bring a laptop and charger (PC, Mac or Chromebook)! The labs will run on all of the latest versions of popular browsers. For the best experience, make sure your laptop has Firefox or Chrome installed. Don’t forget your charger.</p> ","how_to_find_us":"Room 166, Demergrasso-Bava Hall (DBH)","visibility":"public","member_pay_fee":false},{"created":1571713438000,"duration":7200000,"id":"265864390","name":"Programming Algorithm Challenge","rsvp_limit":20,"date_in_series_pattern":false,"status":"past","time":1573693200000,"local_date":"2019-11-13","local_time":"17:00","updated":1573703585000,"utc_offset":-28800000,"waitlist_count":0,"yes_rsvp_count":2,"venue":{"id":26587402,"name":"Mary Stuart Rogers Educational Services Gateway Building","lat":37.523563385009766,"lon":-120.85706329345703,"repinned":true,"address_1":"University Cir","city":"Turlock","country":"us","localized_country_name":"USA","zip":"95382","state":"CA"},"group":{"created":1561497333000,"name":"GDG Cloud Turlock","id":32256923,"join_mode":"open","lat":37.5,"lon":-120.86000061035156,"urlname":"GDG-Cloud-Turlock","who":"Engineers","localized_location":"Turlock, CA","state":"CA","country":"us","region":"en_US","timezone":"US/Pacific"},"link":"https://www.meetup.com/GDG-Cloud-Turlock/events/265864390/","description":"<p>Practice some algorithm questions to get yourself prepared for a technical interview!</p> ","how_to_find_us":"MSR 130c","visibility":"public","member_pay_fee":false},{"created":1564959200000,"duration":7200000,"id":"ggjdhryzpbtb","name":"Gaming Night","rsvp_limit":30,"date_in_series_pattern":false,"status":"past","time":1573866000000,"local_date":"2019-11-15","local_time":"17:00","updated":1573876059000,"utc_offset":-28800000,"waitlist_count":0,"yes_rsvp_count":2,"venue":{"id":26587404,"name":"Demergasso-Bava Hall (DBH)/Professional Schools","lat":37.526241302490234,"lon":-120.86021423339844,"repinned":false,"address_1":"1 University Cir","city":"Turlock","country":"us","localized_country_name":"USA","zip":"95382","state":"CA"},"group":{"created":1561497333000,"name":"GDG Cloud Turlock","id":32256923,"join_mode":"open","lat":37.5,"lon":-120.86000061035156,"urlname":"GDG-Cloud-Turlock","who":"Engineers","localized_location":"Turlock, CA","state":"CA","country":"us","region":"en_US","timezone":"US/Pacific"},"link":"https://www.meetup.com/GDG-Cloud-Turlock/events/ggjdhryzpbtb/","description":"<p>Let the games begin! We'll have video games, board games, and all kinds of other cool stuff, come on out!</p> ","how_to_find_us":"DBH 146","visibility":"public","member_pay_fee":false},{"created":1572557791000,"duration":7200000,"id":"266118666","name":"Getting to know C#","date_in_series_pattern":false,"status":"past","time":1574298000000,"local_date":"2019-11-20","local_time":"17:00","updated":1574308541000,"utc_offset":-28800000,"waitlist_count":0,"yes_rsvp_count":4,"venue":{"id":26587402,"name":"Mary Stuart Rogers Educational Services Gateway Building","lat":37.523563385009766,"lon":-120.85706329345703,"repinned":false,"address_1":"University Cir","city":"Turlock","country":"us","localized_country_name":"USA","zip":"95382","state":"CA"},"group":{"created":1561497333000,"name":"GDG Cloud Turlock","id":32256923,"join_mode":"open","lat":37.5,"lon":-120.86000061035156,"urlname":"GDG-Cloud-Turlock","who":"Engineers","localized_location":"Turlock, CA","state":"CA","country":"us","region":"en_US","timezone":"US/Pacific"},"link":"https://www.meetup.com/GDG-Cloud-Turlock/events/266118666/","description":"<p>Learn how to build Windows applications with C#.</p> ","how_to_find_us":"MSR 130c","visibility":"public","member_pay_fee":false}],"upcoming":[{"created":1564959200000,"duration":7200000,"id":"ggjdhryzpbdc","name":"Gaming Night","rsvp_limit":30,"date_in_series_pattern":false,"status":"upcoming","time":1574470800000,"local_date":"2019-11-22","local_time":"17:00","updated":1566684645000,"utc_offset":-28800000,"waitlist_count":0,"yes_rsvp_count":2,"venue":{"id":26587404,"name":"Demergasso-Bava Hall (DBH)/Professional Schools","lat":37.526241302490234,"lon":-120.86021423339844,"repinned":false,"address_1":"1 University Cir","city":"Turlock","country":"us","localized_country_name":"USA","zip":"95382","state":"CA"},"group":{"created":1561497333000,"name":"GDG Cloud Turlock","id":32256923,"join_mode":"open","lat":37.5,"lon":-120.86000061035156,"urlname":"GDG-Cloud-Turlock","who":"Engineers","localized_location":"Turlock, CA","state":"CA","country":"us","region":"en_US","timezone":"US/Pacific"},"link":"https://www.meetup.com/GDG-Cloud-Turlock/events/ggjdhryzpbdc/","description":"<p>Let the games begin! We'll have video games, board games, and all kinds of other cool stuff, come on out!</p> ","how_to_find_us":"DBH 146","visibility":"public","member_pay_fee":false},{"created":1571717002000,"duration":7200000,"id":"265865478","name":"Building your Portfolio site","date_in_series_pattern":false,"status":"upcoming","time":1574902800000,"local_date":"2019-11-27","local_time":"17:00","updated":1574100421000,"utc_offset":-28800000,"waitlist_count":0,"yes_rsvp_count":2,"venue":{"id":26587402,"name":"Mary Stuart Rogers Educational Services Gateway Building","lat":37.523563385009766,"lon":-120.85706329345703,"repinned":false,"address_1":"University Cir","city":"Turlock","country":"us","localized_country_name":"USA","zip":"95382","state":"CA"},"group":{"created":1561497333000,"name":"GDG Cloud Turlock","id":32256923,"join_mode":"open","lat":37.5,"lon":-120.86000061035156,"urlname":"GDG-Cloud-Turlock","who":"Engineers","localized_location":"Turlock, CA","state":"CA","country":"us","region":"en_US","timezone":"US/Pacific"},"link":"https://www.meetup.com/GDG-Cloud-Turlock/events/265865478/","description":"<p>Since Thanksgiving is the ext day, we'll just be working on getting our portfolio sites going.</p> ","how_to_find_us":"MSR 130c","visibility":"public","member_pay_fee":false},{"created":1571717685000,"duration":7200000,"id":"265865604","name":"Programming with R","date_in_series_pattern":false,"status":"upcoming","time":1575507600000,"local_date":"2019-12-04","local_time":"17:00","updated":1574119571000,"utc_offset":-28800000,"waitlist_count":0,"yes_rsvp_count":3,"venue":{"id":26587402,"name":"Mary Stuart Rogers Educational Services Gateway Building","lat":37.523563385009766,"lon":-120.85706329345703,"repinned":true,"address_1":"University Cir","city":"Turlock","country":"us","localized_country_name":"USA","zip":"95382","state":"CA"},"group":{"created":1561497333000,"name":"GDG Cloud Turlock","id":32256923,"join_mode":"open","lat":37.5,"lon":-120.86000061035156,"urlname":"GDG-Cloud-Turlock","who":"Engineers","localized_location":"Turlock, CA","state":"CA","country":"us","region":"en_US","timezone":"US/Pacific"},"link":"https://www.meetup.com/GDG-Cloud-Turlock/events/265865604/","description":"<p>Get to know what R is all about!</p> ","how_to_find_us":"MSR 130c","visibility":"public","member_pay_fee":false},{"created":1574196167000,"duration":7200000,"id":"sfhjlryzqbjb","name":"GDG Holiday Party","rsvp_limit":30,"date_in_series_pattern":false,"status":"upcoming","time":1575680400000,"local_date":"2019-12-06","local_time":"17:00","updated":1574196167000,"utc_offset":-28800000,"waitlist_count":0,"yes_rsvp_count":2,"venue":{"id":26587404,"name":"Demergasso-Bava Hall (DBH)/Professional Schools","lat":37.526241302490234,"lon":-120.86021423339844,"repinned":false,"address_1":"1 University Cir","city":"Turlock","country":"us","localized_country_name":"USA","zip":"95382","state":"CA"},"group":{"created":1561497333000,"name":"GDG Cloud Turlock","id":32256923,"join_mode":"open","lat":37.5,"lon":-120.86000061035156,"urlname":"GDG-Cloud-Turlock","who":"Engineers","localized_location":"Turlock, CA","state":"CA","country":"us","region":"en_US","timezone":"US/Pacific"},"link":"https://www.meetup.com/GDG-Cloud-Turlock/events/sfhjlryzqbjb/","description":"<p>We got a Holiday party!</p> ","how_to_find_us":"DBH 146","visibility":"public","member_pay_fee":false},{"created":1571718334000,"duration":7200000,"id":"265865685","name":"Your First Progressive Web App","date_in_series_pattern":false,"status":"upcoming","time":1576112400000,"local_date":"2019-12-11","local_time":"17:00","updated":1573089987000,"utc_offset":-28800000,"waitlist_count":0,"yes_rsvp_count":3,"venue":{"id":26587402,"name":"Mary Stuart Rogers Educational Services Gateway Building","lat":37.523563385009766,"lon":-120.85706329345703,"repinned":false,"address_1":"University Cir","city":"Turlock","country":"us","localized_country_name":"USA","zip":"95382","state":"CA"},"group":{"created":1561497333000,"name":"GDG Cloud Turlock","id":32256923,"join_mode":"open","lat":37.5,"lon":-120.86000061035156,"urlname":"GDG-Cloud-Turlock","who":"Engineers","localized_location":"Turlock, CA","state":"CA","country":"us","region":"en_US","timezone":"US/Pacific"},"link":"https://www.meetup.com/GDG-Cloud-Turlock/events/265865685/","description":"<p>Progressive Web Apps provide an installable, app-like experience on desktop and mobile that are built and delivered directly via the web. They're web apps that are fast and reliable. And most importantly, they're web apps that work in any browser. If you're building a web app today, you're already on the path towards building a Progressive Web App.</p> ","how_to_find_us":"MSR 130c","visibility":"public","member_pay_fee":false}],"organizers":[{"id":283611671,"name":"Austin W.","status":"active","joined":1561074583000,"city":"Turlock","country":"us","localized_country_name":"USA","state":"CA","lat":37.5,"lon":-120.86,"photo":{"id":294847469,"highres_link":"https://secure.meetupstatic.com/photos/member/1/d/2/d/highres_294847469.jpeg","photo_link":"https://secure.meetupstatic.com/photos/member/1/d/2/d/member_294847469.jpeg","thumb_link":"https://secure.meetupstatic.com/photos/member/1/d/2/d/thumb_294847469.jpeg","type":"member","base_url":"https://secure.meetupstatic.com"},"group_profile":{"status":"active","visited":1574293405000,"created":1561497333000,"updated":1574293448000,"role":"organizer","group":{"id":32256923,"urlname":"GDG-Cloud-Turlock","name":"GDG Cloud Turlock","status":"active","who":"Engineers","members":74,"join_mode":"open","localized_location":"Turlock, CA","group_photo":{"id":482613649,"highres_link":"https://secure.meetupstatic.com/photos/event/8/3/7/1/highres_482613649.jpeg","photo_link":"https://secure.meetupstatic.com/photos/event/8/3/7/1/600_482613649.jpeg","thumb_link":"https://secure.meetupstatic.com/photos/event/8/3/7/1/thumb_482613649.jpeg","type":"event","base_url":"https://secure.meetupstatic.com"}},"link":"https://www.meetup.com/GDG-Cloud-Turlock/members/283611671/"},"is_pro_admin":false},{"id":284001248,"name":"Avelardo V.","status":"active","joined":1561572863000,"city":"Turlock","country":"us","localized_country_name":"USA","state":"CA","lat":37.5,"lon":-120.86,"group_profile":{"status":"active","visited":1571718498000,"created":1561572868000,"updated":1561572892000,"role":"coorganizer","group":{"id":32256923,"urlname":"GDG-Cloud-Turlock","name":"GDG Cloud Turlock","status":"active","who":"Engineers","members":74,"join_mode":"open","localized_location":"Turlock, CA","group_photo":{"id":482613649,"highres_link":"https://secure.meetupstatic.com/photos/event/8/3/7/1/highres_482613649.jpeg","photo_link":"https://secure.meetupstatic.com/photos/event/8/3/7/1/600_482613649.jpeg","thumb_link":"https://secure.meetupstatic.com/photos/event/8/3/7/1/thumb_482613649.jpeg","type":"event","base_url":"https://secure.meetupstatic.com"}},"link":"https://www.meetup.com/GDG-Cloud-Turlock/members/284001248/"},"is_pro_admin":false},{"id":284015184,"name":"Samuel R.","status":"active","joined":1561587820000,"city":"Turlock","country":"us","localized_country_name":"USA","state":"CA","lat":37.5,"lon":-120.86,"photo":{"id":289724905,"highres_link":"https://secure.meetupstatic.com/photos/member/a/f/6/9/highres_289724905.jpeg","photo_link":"https://secure.meetupstatic.com/photos/member/a/f/6/9/member_289724905.jpeg","thumb_link":"https://secure.meetupstatic.com/photos/member/a/f/6/9/thumb_289724905.jpeg","type":"member","base_url":"https://secure.meetupstatic.com"},"group_profile":{"status":"active","visited":1573107709000,"created":1561587834000,"updated":1561588126000,"role":"coorganizer","group":{"id":32256923,"urlname":"GDG-Cloud-Turlock","name":"GDG Cloud Turlock","status":"active","who":"Engineers","members":74,"join_mode":"open","localized_location":"Turlock, CA","group_photo":{"id":482613649,"highres_link":"https://secure.meetupstatic.com/photos/event/8/3/7/1/highres_482613649.jpeg","photo_link":"https://secure.meetupstatic.com/photos/event/8/3/7/1/600_482613649.jpeg","thumb_link":"https://secure.meetupstatic.com/photos/event/8/3/7/1/thumb_482613649.jpeg","type":"event","base_url":"https://secure.meetupstatic.com"}},"link":"https://www.meetup.com/GDG-Cloud-Turlock/members/284015184/"},"is_pro_admin":false}]}
