[{"created":1530292810000,"duration":10800000,"id":"252277288","name":"Learn to build Actions for the Google Assistant!","rsvp_limit":10,"date_in_series_pattern":false,"status":"past","time":1532552400000,"local_date":"2018-07-25","local_time":"17:00","updated":1535740447000,"utc_offset":-14400000,"waitlist_count":0,"yes_rsvp_count":9,"venue":{"id":25894071,"name":"Inn At Stonington ","lat":41.33174133300781,"lon":-71.90664672851562,"repinned":false,"address_1":"60 Water Street","city":"Stonington","country":"us","localized_country_name":"USA","zip":"06378","state":"CT"},"group":{"created":1530291882000,"name":"GDG New London","id":29033963,"join_mode":"open","lat":41.34000015258789,"lon":-71.91000366210938,"urlname":"GDG-New-London","who":"Members","localized_location":"Stonington, CT","state":"CT","country":"us","region":"en_US","timezone":"US/Eastern"},"link":"https://www.meetup.com/GDG-New-London/events/252277288/","manual_attendance_count":6,"description":"<p>In this event, we will discuss Google Homes, Actions on Google and how they affect certain industry verticals.</p> <p>The event will be hosted in the Harbour View Room of the Inn at Stonington.</p> <p>Admission is free and food is provided.</p> <p>Build Actions for your community</p> ","visibility":"public"},{"created":1541985443000,"duration":3600000,"id":"256333371","name":"Technology Discussion","date_in_series_pattern":false,"status":"past","time":1542049200000,"local_date":"2018-11-12","local_time":"14:00","updated":1542060802000,"utc_offset":-18000000,"waitlist_count":0,"yes_rsvp_count":1,"venue":{"id":1548437,"name":"Starbucks","lat":41.372615814208984,"lon":-71.95123291015625,"repinned":false,"address_1":"12 Coogan Boulevard","city":"Mystic","country":"us","localized_country_name":"USA","zip":"06378","state":"CT"},"group":{"created":1530291882000,"name":"GDG New London","id":29033963,"join_mode":"open","lat":41.34000015258789,"lon":-71.91000366210938,"urlname":"GDG-New-London","who":"Members","localized_location":"Stonington, CT","state":"CT","country":"us","region":"en_US","timezone":"US/Eastern"},"link":"https://www.meetup.com/GDG-New-London/events/256333371/","description":"<p>Join me and discuss smartphones and more technology over coffee!</p> ","visibility":"public"}]
