[{"created":1529616357000,"duration":3600000,"id":"252005253","name":"First Meeting! Get to know each other","rsvp_limit":10,"date_in_series_pattern":false,"status":"past","time":1533430800000,"local_date":"2018-08-04","local_time":"18:00","rsvp_close_offset":"PT29H","updated":1533437883000,"utc_offset":-25200000,"waitlist_count":0,"yes_rsvp_count":3,"venue":{"id":15076542,"name":"Share Space","lat":38.44108963012695,"lon":-122.71519470214844,"repinned":false,"address_1":"533 5th Street","city":"Santa Rosa","country":"us","localized_country_name":"USA","zip":"95401","state":"CA"},"group":{"created":1529441539000,"name":"GDG Sonoma","id":28887367,"join_mode":"open","lat":38.25,"lon":-122.61000061035156,"urlname":"GDG-Sonoma","who":"Members","localized_location":"Petaluma, CA","state":"CA","country":"us","region":"en_US","timezone":"US/Pacific"},"link":"https://www.meetup.com/GDG-Sonoma/events/252005253/","description":"<p>This is our first meeting, so just bring yourself. Refreshments provided.</p> ","visibility":"public"},{"created":1538673608000,"duration":5400000,"id":"255270737","name":"Kotlin Introduction","date_in_series_pattern":false,"status":"past","time":1540083600000,"local_date":"2018-10-20","local_time":"18:00","updated":1540100867000,"utc_offset":-25200000,"waitlist_count":0,"yes_rsvp_count":4,"venue":{"id":15076542,"name":"Share Space","lat":38.44108963012695,"lon":-122.71519470214844,"repinned":false,"address_1":"533 5th Street","city":"Santa Rosa","country":"us","localized_country_name":"USA","zip":"95401","state":"CA"},"group":{"created":1529441539000,"name":"GDG Sonoma","id":28887367,"join_mode":"open","lat":38.25,"lon":-122.61000061035156,"urlname":"GDG-Sonoma","who":"Members","localized_location":"Petaluma, CA","state":"CA","country":"us","region":"en_US","timezone":"US/Pacific"},"link":"https://www.meetup.com/GDG-Sonoma/events/255270737/","description":"<p>I will be giving a introduction to Kotlin talk. Plus I will be giving away a free Kotlin book.</p> ","visibility":"public"},{"created":1546710619000,"duration":5400000,"id":"257814268","name":"Getting Started with Android","date_in_series_pattern":false,"status":"past","time":1547949600000,"local_date":"2019-01-19","local_time":"18:00","updated":1547956663000,"utc_offset":-28800000,"waitlist_count":0,"yes_rsvp_count":6,"venue":{"id":15076542,"name":"Share Space","lat":38.44108963012695,"lon":-122.71519470214844,"repinned":true,"address_1":"533 5th Street","city":"Santa Rosa","country":"us","localized_country_name":"USA","zip":"95401","state":"CA"},"group":{"created":1529441539000,"name":"GDG Sonoma","id":28887367,"join_mode":"open","lat":38.25,"lon":-122.61000061035156,"urlname":"GDG-Sonoma","who":"Members","localized_location":"Petaluma, CA","state":"CA","country":"us","region":"en_US","timezone":"US/Pacific"},"link":"https://www.meetup.com/GDG-Sonoma/events/257814268/","description":"<p>Since there are several members that don't know Android, I thought I would give an introduction to Android and give away a free book: Android Apprentice.<br/>Let me know if this day works for everyone.</p> ","visibility":"public"},{"created":1548007263000,"duration":10800000,"id":"258243679","name":"Machine Learning Cloud Study Jam","date_in_series_pattern":false,"status":"past","time":1549760400000,"local_date":"2019-02-09","local_time":"17:00","updated":1549817787000,"utc_offset":-28800000,"waitlist_count":0,"yes_rsvp_count":2,"venue":{"id":15076542,"name":"Share Space","lat":38.44108963012695,"lon":-122.71519470214844,"repinned":true,"address_1":"533 5th Street","city":"Santa Rosa","country":"us","localized_country_name":"USA","zip":"95401","state":"CA"},"group":{"created":1529441539000,"name":"GDG Sonoma","id":28887367,"join_mode":"open","lat":38.25,"lon":-122.61000061035156,"urlname":"GDG-Sonoma","who":"Members","localized_location":"Petaluma, CA","state":"CA","country":"us","region":"en_US","timezone":"US/Pacific"},"link":"https://www.meetup.com/GDG-Sonoma/events/258243679/","manual_attendance_count":5,"description":"<p>We will be learning Machine Learning with Google Cloud Study Jams</p> ","visibility":"public"}]