{"events":[{"created":1569439190000,"duration":5400000,"id":"265156764","name":"GDG Memphis: Mock Interview Event!","date_in_series_pattern":false,"status":"past","time":1570748400000,"local_date":"2019-10-10","local_time":"18:00","updated":1570760736000,"utc_offset":-18000000,"waitlist_count":0,"yes_rsvp_count":35,"venue":{"id":26585318,"name":"460 S Highland St","lat":35.118961334228516,"lon":-89.94509887695312,"repinned":false,"address_1":"460 S Highland St","city":"Memphis","country":"us","localized_country_name":"USA","zip":"38111","state":"TN"},"group":{"created":1569229959000,"name":"GDG MEMPHIS","id":32800462,"join_mode":"open","lat":35.11000061035156,"lon":-89.94999694824219,"urlname":"GDGMemphis","who":"Developers","localized_location":"Memphis, TN","state":"TN","country":"us","region":"en_US","timezone":"US/Central"},"link":"https://www.meetup.com/GDGMemphis/events/265156764/","description":"<p>This will be a mock interview meetup for the city of memphis! Come dressed to impress and get comfortable going through interviews! We have been very lucky to have many top level recruiters and hiring managers agree to donate their time to help aspiring developers in our Memphis tech scene get comfortable and confident interviewing!</p> ","how_to_find_us":"We are having this meetup at the UMRF Research Park! Parking in the parking lot is available.","visibility":"public","member_pay_fee":false},{"created":1571781216000,"duration":5400000,"id":"265883283","name":"TALK TO THE CEO","date_in_series_pattern":false,"status":"past","time":1573171200000,"local_date":"2019-11-07","local_time":"18:00","updated":1573181654000,"utc_offset":-21600000,"waitlist_count":0,"yes_rsvp_count":40,"venue":{"id":26585318,"name":"460 S Highland St","lat":35.118961334228516,"lon":-89.94509887695312,"repinned":true,"address_1":"460 S Highland St","city":"Memphis","country":"us","localized_country_name":"USA","zip":"38111","state":"TN"},"group":{"created":1569229959000,"name":"GDG MEMPHIS","id":32800462,"join_mode":"open","lat":35.11000061035156,"lon":-89.94999694824219,"urlname":"GDGMemphis","who":"Developers","localized_location":"Memphis, TN","state":"TN","country":"us","region":"en_US","timezone":"US/Central"},"link":"https://www.meetup.com/GDGMemphis/events/265883283/","description":"<p>HIS APP HAS OVER 20 MILLION DOWNLOADS! He now has a brand new startup called \"Blueprint\"!</p> <p>NOVEMBER 7! 6PM - 7:30PM COME TALK TO THE CEO! With Blueprint clients will create complex web apps by simply explaining the app using Blueprints metalanguage. The service then generates ‘ready for production’ code, creates the database schema, takes care of the rest! No need for coding knowledge!</p> ","visibility":"public","member_pay_fee":false},{"created":1570908376000,"duration":5400000,"id":"265620085","name":"GDG Memphis: MAKE MOBILE APPS!","date_in_series_pattern":false,"status":"past","time":1573776000000,"local_date":"2019-11-14","local_time":"18:00","updated":1573784559000,"utc_offset":-21600000,"waitlist_count":0,"yes_rsvp_count":56,"venue":{"id":26585318,"name":"460 S Highland St","lat":35.118961334228516,"lon":-89.94509887695312,"repinned":true,"address_1":"460 S Highland St","city":"Memphis","country":"us","localized_country_name":"USA","zip":"38111","state":"TN"},"group":{"created":1569229959000,"name":"GDG MEMPHIS","id":32800462,"join_mode":"open","lat":35.11000061035156,"lon":-89.94999694824219,"urlname":"GDGMemphis","who":"Developers","localized_location":"Memphis, TN","state":"TN","country":"us","region":"en_US","timezone":"US/Central"},"link":"https://www.meetup.com/GDGMemphis/events/265620085/","description":"<p>MAKE MOBILE APPS FOR BOTH ANDROID AND IOS WITH 1 LANGUAGE! We will do a flutter crash course and teach you enough to make your first app before the end of the meetup! RSVP so I can send you instructions on how to get flutter set up on your computer so you are good to go when we start the meetup!<br/>----------------------------- FLUTTER SET UP --------------------------------------<br/><a href=\"https://flutter.dev/docs/get-started/install\" class=\"linkified\">https://flutter.dev/docs/get-started/install</a><br/>Please follow these install instructions and set up your android studio to these specifications! We will be building an e-commerce application at the meetup. So this will help speed up the process so we can start working on that app right away!</p> ","visibility":"public","member_pay_fee":false}],"upcoming":[{"created":1572483170000,"duration":7200000,"id":"266093824","name":"Network Measurement At Global Scale","date_in_series_pattern":false,"status":"upcoming","time":1575590400000,"local_date":"2019-12-05","local_time":"18:00","updated":1574182617000,"utc_offset":-21600000,"waitlist_count":0,"yes_rsvp_count":48,"venue":{"id":26585318,"name":"460 S Highland St","lat":35.118961334228516,"lon":-89.94509887695312,"repinned":true,"address_1":"460 S Highland St","city":"Memphis","country":"us","localized_country_name":"USA","zip":"38111","state":"TN"},"group":{"created":1569229959000,"name":"GDG MEMPHIS","id":32800462,"join_mode":"open","lat":35.11000061035156,"lon":-89.94999694824219,"urlname":"GDGMemphis","who":"Developers","localized_location":"Memphis, TN","state":"TN","country":"us","region":"en_US","timezone":"US/Central"},"link":"https://www.meetup.com/GDGMemphis/events/266093824/","description":"<p>The CTO of Ookla, Luke Deryckx, will be giving a talk on the tech they use, how they stay ahead of the competition and why they are an industry leader.</p> ","visibility":"public","member_pay_fee":false},{"created":1574027157000,"duration":7200000,"id":"266542272","name":"Flutter Interact and GDG Memphis Holiday party","date_in_series_pattern":false,"status":"upcoming","time":1576195200000,"local_date":"2019-12-12","local_time":"18:00","updated":1574030712000,"utc_offset":-21600000,"waitlist_count":0,"yes_rsvp_count":11,"venue":{"id":26585318,"name":"460 S Highland St","lat":35.118961334228516,"lon":-89.94509887695312,"repinned":true,"address_1":"460 S Highland St","city":"Memphis","country":"us","localized_country_name":"USA","zip":"38111","state":"TN"},"group":{"created":1569229959000,"name":"GDG MEMPHIS","id":32800462,"join_mode":"open","lat":35.11000061035156,"lon":-89.94999694824219,"urlname":"GDGMemphis","who":"Developers","localized_location":"Memphis, TN","state":"TN","country":"us","region":"en_US","timezone":"US/Central"},"link":"https://www.meetup.com/GDGMemphis/events/266542272/","description":"<p>Flutter is the best way to make mobile apps! They will be unvieling some amazing new features so let's have Flutter Interact holiday party! Everyone that attends will receive a free Udemy course, some giveaways will happen and ofcourse FOOD! RSVP!<br/>=&gt; Join our Slack <a href=\"https://lnkd.in/dWRy76Y\" class=\"linkified\">https://lnkd.in/dWRy76Y</a><br/>=&gt;Follow us on Twitter! <a href=\"https://lnkd.in/epCUSfw\" class=\"linkified\">https://lnkd.in/epCUSfw</a><br/>=&gt;Follow us on facebook! <a href=\"https://lnkd.in/eEWD9eR\" class=\"linkified\">https://lnkd.in/eEWD9eR</a></p> ","visibility":"public","member_pay_fee":false},{"created":1574116615000,"duration":7200000,"id":"266568453","name":"Code and Show! Come show off your Flutter apps you have been working on!","date_in_series_pattern":false,"status":"upcoming","time":1576800000000,"local_date":"2019-12-19","local_time":"18:00","updated":1574116615000,"utc_offset":-21600000,"waitlist_count":0,"yes_rsvp_count":1,"venue":{"id":26585318,"name":"460 S Highland St","lat":35.118961334228516,"lon":-89.94509887695312,"repinned":false,"address_1":"460 S Highland St","city":"Memphis","country":"us","localized_country_name":"USA","zip":"38111","state":"TN"},"group":{"created":1569229959000,"name":"GDG MEMPHIS","id":32800462,"join_mode":"open","lat":35.11000061035156,"lon":-89.94999694824219,"urlname":"GDGMemphis","who":"Developers","localized_location":"Memphis, TN","state":"TN","country":"us","region":"en_US","timezone":"US/Central"},"link":"https://www.meetup.com/GDGMemphis/events/266568453/","description":"<p>Come show off your apps! We have been working on flutter apps! So come show off the apps you have been working on, if you are having a problem, come work with others and see what help you can receive!</p> ","visibility":"public","member_pay_fee":false},{"created":1574116877000,"duration":7200000,"id":"pdrhlrybccbmb","name":"GDG Memphis Meetup!","date_in_series_pattern":false,"status":"upcoming","time":1578614400000,"local_date":"2020-01-09","local_time":"18:00","updated":1574116877000,"utc_offset":-21600000,"waitlist_count":0,"yes_rsvp_count":1,"venue":{"id":26585318,"name":"460 S Highland St","lat":35.118961334228516,"lon":-89.94509887695312,"repinned":false,"address_1":"460 S Highland St","city":"Memphis","country":"us","localized_country_name":"USA","zip":"38111","state":"TN"},"group":{"created":1569229959000,"name":"GDG MEMPHIS","id":32800462,"join_mode":"open","lat":35.11000061035156,"lon":-89.94999694824219,"urlname":"GDGMemphis","who":"Developers","localized_location":"Memphis, TN","state":"TN","country":"us","region":"en_US","timezone":"US/Central"},"link":"https://www.meetup.com/GDGMemphis/events/pdrhlrybccbmb/","description":"<p>GDG Memphis Meetup!</p> ","visibility":"public","member_pay_fee":false},{"created":1574116877000,"duration":7200000,"id":"pdrhlrybcdbrb","name":"GDG Memphis Meetup!","date_in_series_pattern":false,"status":"upcoming","time":1581638400000,"local_date":"2020-02-13","local_time":"18:00","updated":1574116877000,"utc_offset":-21600000,"waitlist_count":0,"yes_rsvp_count":1,"venue":{"id":26585318,"name":"460 S Highland St","lat":35.118961334228516,"lon":-89.94509887695312,"repinned":false,"address_1":"460 S Highland St","city":"Memphis","country":"us","localized_country_name":"USA","zip":"38111","state":"TN"},"group":{"created":1569229959000,"name":"GDG MEMPHIS","id":32800462,"join_mode":"open","lat":35.11000061035156,"lon":-89.94999694824219,"urlname":"GDGMemphis","who":"Developers","localized_location":"Memphis, TN","state":"TN","country":"us","region":"en_US","timezone":"US/Central"},"link":"https://www.meetup.com/GDGMemphis/events/pdrhlrybcdbrb/","description":"<p>GDG Memphis Meetup!</p> ","visibility":"public","member_pay_fee":false},{"created":1574116877000,"duration":7200000,"id":"pdrhlrybcfbqb","name":"GDG Memphis Meetup!","date_in_series_pattern":false,"status":"upcoming","time":1584054000000,"local_date":"2020-03-12","local_time":"18:00","updated":1574116877000,"utc_offset":-18000000,"waitlist_count":0,"yes_rsvp_count":1,"venue":{"id":26585318,"name":"460 S Highland St","lat":35.118961334228516,"lon":-89.94509887695312,"repinned":false,"address_1":"460 S Highland St","city":"Memphis","country":"us","localized_country_name":"USA","zip":"38111","state":"TN"},"group":{"created":1569229959000,"name":"GDG MEMPHIS","id":32800462,"join_mode":"open","lat":35.11000061035156,"lon":-89.94999694824219,"urlname":"GDGMemphis","who":"Developers","localized_location":"Memphis, TN","state":"TN","country":"us","region":"en_US","timezone":"US/Central"},"link":"https://www.meetup.com/GDGMemphis/events/pdrhlrybcfbqb/","description":"<p>GDG Memphis Meetup!</p> ","visibility":"public","member_pay_fee":false},{"created":1574116877000,"duration":7200000,"id":"pdrhlrybcgbmb","name":"GDG Memphis Meetup!","date_in_series_pattern":false,"status":"upcoming","time":1586473200000,"local_date":"2020-04-09","local_time":"18:00","updated":1574116877000,"utc_offset":-18000000,"waitlist_count":0,"yes_rsvp_count":1,"venue":{"id":26585318,"name":"460 S Highland St","lat":35.118961334228516,"lon":-89.94509887695312,"repinned":false,"address_1":"460 S Highland St","city":"Memphis","country":"us","localized_country_name":"USA","zip":"38111","state":"TN"},"group":{"created":1569229959000,"name":"GDG MEMPHIS","id":32800462,"join_mode":"open","lat":35.11000061035156,"lon":-89.94999694824219,"urlname":"GDGMemphis","who":"Developers","localized_location":"Memphis, TN","state":"TN","country":"us","region":"en_US","timezone":"US/Central"},"link":"https://www.meetup.com/GDGMemphis/events/pdrhlrybcgbmb/","description":"<p>GDG Memphis Meetup!</p> ","visibility":"public","member_pay_fee":false},{"created":1574116877000,"duration":7200000,"id":"pdrhlrybchbsb","name":"GDG Memphis Meetup!","date_in_series_pattern":false,"status":"upcoming","time":1589497200000,"local_date":"2020-05-14","local_time":"18:00","updated":1574116877000,"utc_offset":-18000000,"waitlist_count":0,"yes_rsvp_count":1,"venue":{"id":26585318,"name":"460 S Highland St","lat":35.118961334228516,"lon":-89.94509887695312,"repinned":false,"address_1":"460 S Highland St","city":"Memphis","country":"us","localized_country_name":"USA","zip":"38111","state":"TN"},"group":{"created":1569229959000,"name":"GDG MEMPHIS","id":32800462,"join_mode":"open","lat":35.11000061035156,"lon":-89.94999694824219,"urlname":"GDGMemphis","who":"Developers","localized_location":"Memphis, TN","state":"TN","country":"us","region":"en_US","timezone":"US/Central"},"link":"https://www.meetup.com/GDGMemphis/events/pdrhlrybchbsb/","description":"<p>GDG Memphis Meetup!</p> ","visibility":"public","member_pay_fee":false},{"created":1574116877000,"duration":7200000,"id":"pdrhlrybcjbpb","name":"GDG Memphis Meetup!","date_in_series_pattern":false,"status":"upcoming","time":1591916400000,"local_date":"2020-06-11","local_time":"18:00","updated":1574116877000,"utc_offset":-18000000,"waitlist_count":0,"yes_rsvp_count":1,"venue":{"id":26585318,"name":"460 S Highland St","lat":35.118961334228516,"lon":-89.94509887695312,"repinned":false,"address_1":"460 S Highland St","city":"Memphis","country":"us","localized_country_name":"USA","zip":"38111","state":"TN"},"group":{"created":1569229959000,"name":"GDG MEMPHIS","id":32800462,"join_mode":"open","lat":35.11000061035156,"lon":-89.94999694824219,"urlname":"GDGMemphis","who":"Developers","localized_location":"Memphis, TN","state":"TN","country":"us","region":"en_US","timezone":"US/Central"},"link":"https://www.meetup.com/GDGMemphis/events/pdrhlrybcjbpb/","description":"<p>GDG Memphis Meetup!</p> ","visibility":"public","member_pay_fee":false},{"created":1574116877000,"duration":7200000,"id":"pdrhlrybckbmb","name":"GDG Memphis Meetup!","date_in_series_pattern":false,"status":"upcoming","time":1594335600000,"local_date":"2020-07-09","local_time":"18:00","updated":1574116877000,"utc_offset":-18000000,"waitlist_count":0,"yes_rsvp_count":1,"venue":{"id":26585318,"name":"460 S Highland St","lat":35.118961334228516,"lon":-89.94509887695312,"repinned":false,"address_1":"460 S Highland St","city":"Memphis","country":"us","localized_country_name":"USA","zip":"38111","state":"TN"},"group":{"created":1569229959000,"name":"GDG MEMPHIS","id":32800462,"join_mode":"open","lat":35.11000061035156,"lon":-89.94999694824219,"urlname":"GDGMemphis","who":"Developers","localized_location":"Memphis, TN","state":"TN","country":"us","region":"en_US","timezone":"US/Central"},"link":"https://www.meetup.com/GDGMemphis/events/pdrhlrybckbmb/","description":"<p>GDG Memphis Meetup!</p> ","visibility":"public","member_pay_fee":false},{"created":1574116877000,"duration":7200000,"id":"pdrhlrybclbrb","name":"GDG Memphis Meetup!","date_in_series_pattern":false,"status":"upcoming","time":1597359600000,"local_date":"2020-08-13","local_time":"18:00","updated":1574116877000,"utc_offset":-18000000,"waitlist_count":0,"yes_rsvp_count":1,"venue":{"id":26585318,"name":"460 S Highland St","lat":35.118961334228516,"lon":-89.94509887695312,"repinned":false,"address_1":"460 S Highland St","city":"Memphis","country":"us","localized_country_name":"USA","zip":"38111","state":"TN"},"group":{"created":1569229959000,"name":"GDG MEMPHIS","id":32800462,"join_mode":"open","lat":35.11000061035156,"lon":-89.94999694824219,"urlname":"GDGMemphis","who":"Developers","localized_location":"Memphis, TN","state":"TN","country":"us","region":"en_US","timezone":"US/Central"},"link":"https://www.meetup.com/GDGMemphis/events/pdrhlrybclbrb/","description":"<p>GDG Memphis Meetup!</p> ","visibility":"public","member_pay_fee":false},{"created":1574116877000,"duration":7200000,"id":"pdrhlrybcmbnb","name":"GDG Memphis Meetup!","date_in_series_pattern":false,"status":"upcoming","time":1599778800000,"local_date":"2020-09-10","local_time":"18:00","updated":1574116877000,"utc_offset":-18000000,"waitlist_count":0,"yes_rsvp_count":1,"venue":{"id":26585318,"name":"460 S Highland St","lat":35.118961334228516,"lon":-89.94509887695312,"repinned":false,"address_1":"460 S Highland St","city":"Memphis","country":"us","localized_country_name":"USA","zip":"38111","state":"TN"},"group":{"created":1569229959000,"name":"GDG MEMPHIS","id":32800462,"join_mode":"open","lat":35.11000061035156,"lon":-89.94999694824219,"urlname":"GDGMemphis","who":"Developers","localized_location":"Memphis, TN","state":"TN","country":"us","region":"en_US","timezone":"US/Central"},"link":"https://www.meetup.com/GDGMemphis/events/pdrhlrybcmbnb/","description":"<p>GDG Memphis Meetup!</p> ","visibility":"public","member_pay_fee":false},{"created":1574116877000,"duration":7200000,"id":"pdrhlrybcnblb","name":"GDG Memphis Meetup!","date_in_series_pattern":false,"status":"upcoming","time":1602198000000,"local_date":"2020-10-08","local_time":"18:00","updated":1574116877000,"utc_offset":-18000000,"waitlist_count":0,"yes_rsvp_count":1,"venue":{"id":26585318,"name":"460 S Highland St","lat":35.118961334228516,"lon":-89.94509887695312,"repinned":false,"address_1":"460 S Highland St","city":"Memphis","country":"us","localized_country_name":"USA","zip":"38111","state":"TN"},"group":{"created":1569229959000,"name":"GDG MEMPHIS","id":32800462,"join_mode":"open","lat":35.11000061035156,"lon":-89.94999694824219,"urlname":"GDGMemphis","who":"Developers","localized_location":"Memphis, TN","state":"TN","country":"us","region":"en_US","timezone":"US/Central"},"link":"https://www.meetup.com/GDGMemphis/events/pdrhlrybcnblb/","description":"<p>GDG Memphis Meetup!</p> ","visibility":"public","member_pay_fee":false},{"created":1574116877000,"duration":7200000,"id":"pdrhlrybcpbqb","name":"GDG Memphis Meetup!","date_in_series_pattern":false,"status":"upcoming","time":1605225600000,"local_date":"2020-11-12","local_time":"18:00","updated":1574116877000,"utc_offset":-21600000,"waitlist_count":0,"yes_rsvp_count":1,"venue":{"id":26585318,"name":"460 S Highland St","lat":35.118961334228516,"lon":-89.94509887695312,"repinned":false,"address_1":"460 S Highland St","city":"Memphis","country":"us","localized_country_name":"USA","zip":"38111","state":"TN"},"group":{"created":1569229959000,"name":"GDG MEMPHIS","id":32800462,"join_mode":"open","lat":35.11000061035156,"lon":-89.94999694824219,"urlname":"GDGMemphis","who":"Developers","localized_location":"Memphis, TN","state":"TN","country":"us","region":"en_US","timezone":"US/Central"},"link":"https://www.meetup.com/GDGMemphis/events/pdrhlrybcpbqb/","description":"<p>GDG Memphis Meetup!</p> ","visibility":"public","member_pay_fee":false}],"organizers":[{"id":280679295,"name":"Danny T.","status":"active","joined":1557331335000,"city":"Memphis","country":"us","localized_country_name":"USA","state":"TN","lat":35.07,"lon":-89.96,"photo":{"id":292791368,"highres_link":"https://secure.meetupstatic.com/photos/member/c/8/a/8/highres_292791368.jpeg","photo_link":"https://secure.meetupstatic.com/photos/member/c/8/a/8/member_292791368.jpeg","thumb_link":"https://secure.meetupstatic.com/photos/member/c/8/a/8/thumb_292791368.jpeg","type":"member","base_url":"https://secure.meetupstatic.com"},"group_profile":{"status":"active","visited":1574365533000,"created":1569229959000,"updated":1569230050000,"role":"organizer","group":{"id":32800462,"urlname":"GDGMemphis","name":"GDG MEMPHIS","status":"active","who":"Developers","members":136,"join_mode":"open","localized_location":"Memphis, TN"},"link":"https://www.meetup.com/GDGMemphis/members/280679295/"},"is_pro_admin":false}]}
